[{"title": "Allatoona Pass", "lat": "34.11401934", "lng": "-84.7150752140", "counties": "Bartow", "states": "Georgia", "length": "1 miles", "trail_end_points": "Cartersville (Lake Allatoona area) and Cartersville (Lake Allatoona area)", "trail_surfaces": "Dirt", "trail_category": "Rail-Trail", "trail_activities": ["Fishing", "Walking"]}, {"title": "Arabia Mountain Trail", "lat": "33.6539874390", "lng": "-84.1657462650", "counties": "De Kalb, Rockdale", "states": "Georgia", "length": "12.4 miles", "trail_end_points": "Rockdale River Trail at South River and Johnson Street", "trail_surfaces": "Concrete", "trail_category": "Rail-Trail", "trail_activities": ["Bike", "Fishing", "Wheelchair Accessible", "Walking"]}, {"title": "Atlanta BeltLine (Overview)", "lat": "33.7528681130", "lng": "-84.3666720170", "counties": "Fulton", "states": "Georgia", "length": "10.9 miles", "trail_end_points": "Atlanta Memorial Park  and Rose Circle Park", "trail_surfaces": "Concrete", "trail_category": "Rail-Trail", "trail_activities": ["Bike", "Inline Skating", "Wheelchair Accessible", "Walking"]}, {"title": "Atlanta Road Path", "lat": "33.8946583160", "lng": "-84.5204219590", "counties": "Cobb", "states": "Georgia", "length": "2.5 miles", "trail_end_points": "Dunn Ave. and Windy Hill Rd.", "trail_surfaces": "Asphalt", "trail_category": "Rail-Trail", "trail_activities": ["Bike", "Walking"]}, {"title": "Big Creek Greenway", "lat": "34.0297867480", "lng": "-84.3103016950", "counties": "Forsyth, Fulton", "states": "Georgia", "length": "19.7 miles", "trail_end_points": "Kelly Mill Rd. (Cumming) to McFarland Parway (Alpharetta); and Macaroni Dr. (Alpharetta) to Big Creek Park (Roswell)", "trail_surfaces": "Concrete", "trail_category": "Greenway/Non-RT", "trail_activities": ["Bike", "Inline Skating", "Wheelchair Accessible", "Walking"]}, {"title": "Camp Creek Greenway", "lat": "33.8801002940", "lng": "-84.15580982", "counties": "Gwinnett", "states": "Georgia", "length": "2.5 miles", "trail_end_points": "Rockbridge Rd. and Killian Hill Rd.", "trail_surfaces": "Concrete", "trail_category": "Rail-Trail", "trail_activities": ["Bike", "Walking"]}, {"title": "Carrollton GreenBelt", "lat": "33.5952744260", "lng": "-85.0428130190", "counties": "Carroll", "states": "Georgia", "length": "17.4 miles", "trail_end_points": "University of West Georgia and East Carrollton Park", "trail_surfaces": "Concrete", "trail_category": "Greenway/Non-RT", "trail_activities": ["Bike", "Inline Skating", "Wheelchair Accessible", "Walking"]}, {"title": "Castlewood Road Path", "lat": "33.4744383060", "lng": "-84.5972116070", "counties": "Fayette", "states": "Georgia", "length": "1.8 miles", "trail_end_points": "Senoia Rd. and Ashland Trl.", "trail_surfaces": "Asphalt", "trail_category": "Greenway/Non-RT", "trail_activities": ["Bike", "Walking"]}, {"title": "Chastain Park Trail", "lat": "33.8621662750", "lng": "-84.3892745620", "counties": "Fulton", "states": "Georgia", "length": "3.7 miles", "trail_end_points": "Atlanta (Buckhead neighborhood) and loop around Chastain Park", "trail_surfaces": "Asphalt", "trail_category": "Greenway/Non-RT", "trail_activities": ["Bike", "Inline Skating", "Wheelchair Accessible", "Walking"]}, {"title": "Cochran Shoals Trail", "lat": "33.90322755", "lng": "-84.4447504030", "counties": "Cobb", "states": "Georgia", "length": "1.6 miles", "trail_end_points": "Columns Dr. and Interstate North Pkwy.", "trail_surfaces": "Gravel", "trail_category": "Greenway/Non-RT", "trail_activities": ["Bike", "Fishing", "Walking"]}, {"title": "Cricket Frog Trail", "lat": "33.5991834250", "lng": "-83.8741198570", "counties": "Newton", "states": "Georgia", "length": "14.9 miles", "trail_end_points": "Washington St. (Covington) and Ziegler Road (Newborn)", "trail_surfaces": "Ballast, Concrete, Dirt, Grass", "trail_category": "Rail-Trail", "trail_activities": ["Bike", "Inline Skating", "Mountain Biking", "Walking"]}, {"title": "Cumberland Connector", "lat": "33.8490805720", "lng": "-84.49354560", "counties": "Cobb", "states": "Georgia", "length": "4.8 miles", "trail_end_points": "S. Cobb Drive and Cumberland Parkway SE and Cumberland Boulevard and Cobb Parkway SE", "trail_surfaces": "Concrete", "trail_category": "Greenway/Non-RT", "trail_activities": ["Bike", "Wheelchair Accessible", "Walking"]}, {"title": "East Cobb Trail", "lat": "33.9778632380", "lng": "-84.4373063490", "counties": "Cobb", "states": "Georgia", "length": "1.5 miles", "trail_end_points": "Murdock Rd. and Seven Springs Ct.", "trail_surfaces": "Concrete", "trail_category": "Greenway/Non-RT", "trail_activities": ["Bike", "Walking"]}, {"title": "Eastside Trail (Atlanta BeltLine)", "lat": "33.7528681130", "lng": "-84.3666720170", "counties": "Fulton", "states": "Georgia", "length": "3.1 miles", "trail_end_points": "Piedmont Park and Kirkwood Ave. SE", "trail_surfaces": "Concrete", "trail_category": "Rail-Trail", "trail_activities": ["Bike", "Inline Skating", "Wheelchair Accessible", "Walking"]}, {"title": "Eastside Trail (Covington)", "lat": "33.5996793730", "lng": "-83.8401972970", "counties": "Newton", "states": "Georgia", "length": "2.4 miles", "trail_end_points": "Newton County Public Library and Eastside High School", "trail_surfaces": "Concrete", "trail_category": "Greenway/Non-RT", "trail_activities": ["Bike", "Wheelchair Accessible", "Walking"]}, {"title": "Ivy Creek Greenway", "lat": "34.0585306130", "lng": "-84.0497083930", "counties": "Gwinnett", "states": "Georgia", "length": "2.3 miles", "trail_end_points": "Woodward Mill Rd.  and Gravel Springs Rd.", "trail_surfaces": "Asphalt, Gravel", "trail_category": "Greenway/Non-RT", "trail_activities": ["Bike", "Walking"]}, {"title": "Keswick Park Extension Trail", "lat": "33.8874823360", "lng": "-84.3169238290", "counties": "De Kalb", "states": "Georgia", "length": "0.6 miles", "trail_end_points": "Keswick Park and Chamblee Tucker Road", "trail_surfaces": "Asphalt", "trail_category": "Rail-Trail", "trail_activities": ["Bike", "Wheelchair Accessible", "Walking"]}, {"title": "Lionel Hampton Trail", "lat": "33.7565664040", "lng": "-84.4204437310", "counties": "Fulton", "states": "Georgia", "length": "1.2 miles", "trail_end_points": "Chatham Way NW and Lena Street NW", "trail_surfaces": "Asphalt", "trail_category": "Greenway/Non-RT", "trail_activities": ["Bike", "Inline Skating", "Walking"]}, {"title": "Lucille Creek Trail", "lat": "33.8598555720", "lng": "-84.6854890280", "counties": "Cobb", "states": "Georgia", "length": "1.2 miles", "trail_end_points": "Shipp Road near Country Cove Way and Powder Springs-Dallas Road and Brownsville Road", "trail_surfaces": "", "trail_category": "Greenway/Non-RT", "trail_activities": ["Bike", "Walking"]}, {"title": "Midtown Greenway (GA)", "lat": "34.2890809540", "lng": "-83.8239782730", "counties": "Hall", "states": "Georgia", "length": "0.5 miles", "trail_end_points": "Parker Street and Grove Street and Martin Luther King Jr. Boulevard", "trail_surfaces": "Concrete", "trail_category": "Rail-Trail", "trail_activities": ["Bike", "Inline Skating", "Walking"]}, {"title": "Mountain-to-River Trail", "lat": "33.9502677090", "lng": "-84.5503779520", "counties": "Cobb", "states": "Georgia", "length": "1.8 miles", "trail_end_points": "Stilesboro Rd. and Roselane St.", "trail_surfaces": "Concrete", "trail_category": "Greenway/Non-RT", "trail_activities": ["Bike", "Walking"]}, {"title": "Noonday Creek Trail", "lat": "33.9845185510", "lng": "-84.5777800680", "counties": "Cherokee, Cobb", "states": "Georgia", "length": "7.9 miles", "trail_end_points": "Pinehill Drive and Kennesaw Mountain Battle Field Park (NPS)", "trail_surfaces": "Asphalt, Boardwalk, Concrete", "trail_category": "Greenway/Non-RT", "trail_activities": ["Bike", "Inline Skating", "Wheelchair Accessible", "Walking"]}, {"title": "North Park Path", "lat": "34.1086437890", "lng": "-84.2826092850", "counties": "Fulton", "states": "Georgia", "length": "0.8 miles", "trail_end_points": "Bethany Rd. and Coyburn Rd.", "trail_surfaces": "Asphalt", "trail_category": "Greenway/Non-RT", "trail_activities": ["Bike", "Walking"]}, {"title": "Northside Trail (Atlanta BeltLine)", "lat": "33.8044027060", "lng": "-84.4005941310", "counties": "Fulton", "states": "Georgia", "length": "1.1 miles", "trail_end_points": "Ardmore Park and Atlanta Memorial Park", "trail_surfaces": "Concrete", "trail_category": "Greenway/Non-RT", "trail_activities": ["Bike", "Inline Skating", "Wheelchair Accessible", "Walking"]}, {"title": "Oxford Trail", "lat": "33.6297364260", "lng": "-83.8734987840", "counties": "Newton", "states": "Georgia", "length": "1.2 miles", "trail_end_points": "Stone Street and W. Watson Street", "trail_surfaces": "Concrete", "trail_category": "Greenway/Non-RT", "trail_activities": ["Bike", "Wheelchair Accessible", "Walking"]}, {"title": "PATH400 Greenway Trail", "lat": "33.8259056740", "lng": "-84.3622628930", "counties": "Fulton", "states": "Georgia", "length": "2 miles", "trail_end_points": "Wieuca Rd. NE and Adiva Dr. NE and Piedmont Rd. NE", "trail_surfaces": "Concrete", "trail_category": "Greenway/Non-RT", "trail_activities": ["Bike", "Inline Skating", "Wheelchair Accessible", "Walking"]}, {"title": "Peachtree City Multi-Use Paths", "lat": "33.4426375880", "lng": "-84.57555081", "counties": "Fayette", "states": "Georgia", "length": "90 miles", "trail_end_points": "Peachtree City and Peachtree City", "trail_surfaces": "Asphalt", "trail_category": "Greenway/Non-RT", "trail_activities": ["Bike", "Inline Skating", "Wheelchair Accessible", "Walking"]}, {"title": "Phoenix Trail", "lat": "33.6382287230", "lng": "-84.4591820910", "counties": "Clayton, Fulton", "states": "Georgia", "length": "1.2 miles", "trail_end_points": "W. Point Ave. west of Best Rd. and Hyannis Ct. east of Massachusetts Blvd.", "trail_surfaces": "Concrete", "trail_category": "Rail-Trail", "trail_activities": ["Bike", "Inline Skating", "Wheelchair Accessible", "Walking"]}, {"title": "Reeves Creek Trail", "lat": "33.5343398210", "lng": "-84.2447698710", "counties": "Henry", "states": "Georgia", "length": "1.4 miles", "trail_end_points": "Memorial Park and Near Flippen Road", "trail_surfaces": "Concrete", "trail_category": "Greenway/Non-RT", "trail_activities": ["Bike", "Walking"]}, {"title": "Rock Creek Greenway", "lat": "34.2989548430", "lng": "-83.8457932210", "counties": "Hall", "states": "Georgia", "length": "2 miles", "trail_end_points": "Academy Street and Northside Drive and Pearl Nix Parkway", "trail_surfaces": "Asphalt, Concrete", "trail_category": "Greenway/Non-RT", "trail_activities": ["Bike", "Inline Skating", "Walking"]}, {"title": "Rockdale River Trail", "lat": "33.6226918910", "lng": "-84.1732241870", "counties": "Rockdale", "states": "Georgia", "length": "9.47 miles", "trail_end_points": "Arabia Mountain Trail at South River and Monastery of the Holy Spirit", "trail_surfaces": "Concrete", "trail_category": "Greenway/Non-RT", "trail_activities": ["Bike", "Inline Skating", "Fishing", "Wheelchair Accessible", "Walking"]}, {"title": "Silver Comet Trail", "lat": "33.8439076660", "lng": "-84.5012556850", "counties": "Cobb, Paulding, Polk", "states": "Georgia", "length": "61.5 miles", "trail_end_points": "S. Cobb Drive (Smyrna) and State Line Gateway Park (Georgia/Alabama state line)", "trail_surfaces": "Concrete", "trail_category": "Rail-Trail", "trail_activities": ["Bike", "Inline Skating", "Wheelchair Accessible", "Walking"]}, {"title": "South Peachtree Creek Trail", "lat": "33.8036598510", "lng": "-84.3052981350", "counties": "De Kalb", "states": "Georgia", "length": "1.1 miles", "trail_end_points": "Mason Mill Park at Mason Mill Rd. and McConnell Dr. and Medlock Park at Scott Circle", "trail_surfaces": "Boardwalk", "trail_category": "Greenway/Non-RT", "trail_activities": ["Bike", "Wheelchair Accessible", "Walking"]}, {"title": "South River Trail", "lat": "33.6577158890", "lng": "-84.2003690970", "counties": "De Kalb, Rockdale", "states": "Georgia", "length": "3.2 miles", "trail_end_points": "Arabia Mountain Trail (at Lyons Road) and Martin Luther King Jr. High School", "trail_surfaces": "Concrete", "trail_category": "Greenway/Non-RT", "trail_activities": ["Bike", "Inline Skating", "Walking"]}, {"title": "Southwest Connector Trail (Atlanta BeltLine)", "lat": "33.738863", "lng": "-84.45626378", "counties": "Fulton", "states": "Georgia", "length": "1.1 miles", "trail_end_points": "Lionel Hampton Trail and Westwood Avenue", "trail_surfaces": "Concrete", "trail_category": "Greenway/Non-RT", "trail_activities": ["Bike", "Inline Skating", "Wheelchair Accessible", "Walking"]}, {"title": "Spring Road Trail", "lat": "33.8834898550", "lng": "-84.4862934020", "counties": "Cobb", "states": "Georgia", "length": "0.7 miles", "trail_end_points": "Village Pkwy. and Carolyn Dr.", "trail_surfaces": "Asphalt", "trail_category": "Greenway/Non-RT", "trail_activities": ["Bike", "Walking"]}, {"title": "Stone Mountain Trail", "lat": "33.7620458890", "lng": "-84.3817876790", "counties": "De Kalb, Fulton", "states": "Georgia", "length": "20.5 miles", "trail_end_points": "Piedmont Ave. and Baker St. (Atlanta) and Stone Mountain Park on Main St. (Stone Mountain)", "trail_surfaces": "Asphalt, Concrete", "trail_category": "Rail-Trail", "trail_activities": ["Bike", "Inline Skating", "Wheelchair Accessible", "Walking"]}, {"title": "Suwanee Creek Greenway", "lat": "34.0331198730", "lng": "-84.0883068430", "counties": "Gwinnett", "states": "Georgia", "length": "4.9 miles", "trail_end_points": "Suwanee Creek Park and George Pierce Park", "trail_surfaces": "Asphalt, Concrete", "trail_category": "Greenway/Non-RT", "trail_activities": ["Bike", "Inline Skating", "Fishing", "Wheelchair Accessible", "Walking"]}, {"title": "Town to Creek Trail", "lat": "34.10035889", "lng": "-84.5210974170", "counties": "Cherokee", "states": "Georgia", "length": "0.6 miles", "trail_end_points": "Elm Street and Mill Street and Pinehill Drive", "trail_surfaces": "Concrete", "trail_category": "Greenway/Non-RT", "trail_activities": ["Bike", "Wheelchair Accessible", "Walking"]}, {"title": "Trolley Line Trail (GA)", "lat": "33.74816108", "lng": "-84.3491102670", "counties": "De Kalb, Fulton", "states": "Georgia", "length": "7 miles", "trail_end_points": "Atlanta (the King Center downtown) and Decatur (Agnes Scott College)", "trail_surfaces": "Asphalt, Concrete", "trail_category": "Rail-Trail", "trail_activities": ["Bike", "Inline Skating", "Wheelchair Accessible", "Walking"]}, {"title": "West End Trail (Atlanta BeltLine)", "lat": "33.7322395960", "lng": "-84.4205689350", "counties": "Fulton", "states": "Georgia", "length": "2.3 miles", "trail_end_points": "Westview Drive south of I-20 and West Marietta Street", "trail_surfaces": "Concrete", "trail_category": "Greenway/Non-RT", "trail_activities": ["Bike", "Inline Skating", "Wheelchair Accessible", "Walking"]}, {"title": "Westside Trail (Atlanta Beltline)", "lat": "33.7264958280", "lng": "-84.4144391390", "counties": "Fulton", "states": "Georgia", "length": "3.3 miles", "trail_end_points": "University Ave. and Lena Ave.", "trail_surfaces": "Concrete", "trail_category": "Rail-Trail", "trail_activities": ["Bike", "Inline Skating", "Wheelchair Accessible", "Walking"]}, {"title": "Whetstone Creek Trail", "lat": "33.8090282650", "lng": "-84.4529087740", "counties": "Fulton", "states": "Georgia", "length": "1.4 miles", "trail_end_points": "Marietta Rd. and Marietta Rd.", "trail_surfaces": "Concrete", "trail_category": "Rail-Trail", "trail_activities": ["Bike", "Walking"]}, {"title": "Wildhorse Trail", "lat": "33.8599876590", "lng": "-84.6523321340", "counties": "Cobb", "states": "Georgia", "length": "1.5 miles", "trail_end_points": "Powder Springs (Wild Horse Creek Park at Macedonia Rd) south and Powder Springs (Silver Comet Trail at Carter Rd)", "trail_surfaces": "Concrete", "trail_category": "Greenway/Non-RT", "trail_activities": ["Bike", "Inline Skating", "Wheelchair Accessible", "Walking"]}, {"title": "Yellow River Trail", "lat": "33.5733049050", "lng": "-83.9017732780", "counties": "Newton", "states": "Georgia", "length": "0.5 miles", "trail_end_points": "Porterdale Depot and Yellow River Park", "trail_surfaces": "Concrete", "trail_category": "Rail-Trail", "trail_activities": ["Bike", "Inline Skating", "Wheelchair Accessible", "Walking"]}]